City_ID,City,Lat,Lng,Max Temp,Humidity,Cloudiness,Wind Speed,Country,Date
0,santa elena de uairen,4.6167,-61.1333,21.11,91,100,1.4,VE,1684975923
1,bashanet,-4.2333,35.4167,10.88,98,83,2.65,TZ,1684975923
2,port elizabeth,-33.918,25.5701,17.95,88,0,5.66,ZA,1684975701
3,longyearbyen,78.2186,15.6401,2.91,70,75,4.63,SJ,1684975924
4,kruisfontein,-34.0033,24.7314,13.27,62,6,2.93,ZA,1684975924
5,lata,40.1629,-8.3327,16.15,80,8,1.32,PT,1684975925
6,invercargill,-46.4,168.35,14.7,70,97,3.45,NZ,1684975925
7,arraial do cabo,-22.9661,-42.0278,17.98,94,20,1.03,BR,1684975926
8,jamestown,42.097,-79.2353,13.77,71,40,4.12,US,1684975763
9,luwuk,-0.9516,122.7875,29.06,71,82,3.17,ID,1684975927
10,santa cruz,-17.8,-63.1667,24.7,88,40,3.6,BO,1684975927
11,port-aux-francais,-49.35,70.2167,6.1,99,100,6.52,TF,1684975928
12,blackmans bay,-43.0167,147.3167,10.96,82,98,5.69,AU,1684975928
13,dinan,48.4167,-2.25,11.92,86,0,2.34,FR,1684975929
14,flin flon,54.7682,-101.865,18.19,57,97,5.4,CA,1684975929
15,urangan,-25.3,152.9,20.98,61,0,2.78,AU,1684975930
16,ushuaia,-54.8,-68.3,3.81,87,75,1.03,AR,1684975536
17,ciudad lazaro cardenas,17.9583,-102.2,28.25,71,100,3.77,MX,1684975930
18,saudarkrokur,65.7461,-19.6394,3.1,72,59,8.37,IS,1684975931
19,bethel,41.3712,-73.414,15.27,79,100,2.68,US,1684975637
20,palopo,-2.9996,120.1921,27.16,78,100,1.07,ID,1684975932
21,colonia,50.9333,6.95,10.53,83,0,0.51,DE,1684975748
22,el rama,12.1596,-84.2195,26.37,74,15,3.28,NI,1684975933
23,qaqortoq,60.7167,-46.0333,0.47,100,100,4.16,GL,1684975933
24,tiksi,71.6872,128.8694,-2.95,81,17,1.76,RU,1684975934
25,chonchi,-42.6128,-73.8092,7.77,79,75,4.61,CL,1684975934
26,shalkar,47.8288,59.6258,18.55,39,0,3.48,KZ,1684975934
27,albany,42.6001,-73.9662,12.04,85,63,3.75,US,1684975906
28,afaahiti,-17.75,-149.2833,27.93,77,48,3.35,PF,1684975935
29,boguchany,58.3814,97.4531,5.79,63,29,3.97,RU,1684975936
30,edinburgh of the seven seas,-37.0676,-12.3116,14.84,70,92,12.3,SH,1684975936
31,adamstown,-25.066,-130.1015,23.71,71,58,2.57,PN,1684975937
32,margaret river,-33.95,115.0667,14.18,65,52,4.82,AU,1684975937
33,lethem,3.3803,-59.7968,25.84,83,41,3.06,GY,1684975938
34,ciudad victoria,23.7333,-99.1333,28.08,65,85,1.78,MX,1684975800
35,al burayqah,30.4062,19.5739,24.9,37,76,8.77,LY,1684975938
36,anadyr,64.75,177.4833,6.28,70,20,3.0,RU,1684975939
37,waitangi,-43.9535,-176.5597,12.68,69,29,3.13,NZ,1684975939
38,bilibino,68.0546,166.4372,9.73,46,17,1.63,RU,1684975940
39,badger,64.8,-147.5333,21.4,35,100,4.12,US,1684975940
40,port mathurin,-19.6833,63.4167,24.9,70,68,5.02,MU,1684975836
41,petropavlovsk-kamchatsky,53.0452,158.6483,15.33,33,40,3.0,RU,1684975941
42,hami,42.8,93.45,20.65,18,1,4.91,CN,1684975941
43,holualoa,19.6228,-155.9522,24.91,85,75,3.6,US,1684975942
44,georgetown,5.4112,100.3354,28.96,78,20,1.03,MY,1684975349
45,dudinka,69.4058,86.1778,-0.21,94,100,1.39,RU,1684975943
46,talnakh,69.4865,88.3972,-0.44,89,100,1.46,RU,1684975834
47,tazovsky,67.4667,78.7,1.67,87,9,2.08,RU,1684975943
48,nha trang,12.25,109.1833,29.0,71,100,1.38,VN,1684975781
49,iqaluit,63.7506,-68.5145,-0.15,86,100,7.2,CA,1684975944
50,teguise,29.0605,-13.564,17.12,72,20,2.57,ES,1684975944
51,puerto ayora,-0.7393,-90.3518,25.86,91,7,2.68,EC,1684975945
52,constantia,44.1833,28.65,15.39,83,36,1.66,RO,1684975945
53,wailua homesteads,22.0669,-159.378,27.24,69,40,7.72,US,1684975946
54,stanley,54.868,-1.6985,11.55,86,70,1.68,GB,1684975789
55,anloga,5.7947,0.8973,28.02,79,100,4.76,GH,1684975947
56,plastun,44.7561,136.2939,21.95,45,100,2.52,RU,1684975947
57,saldanha,-33.0117,17.9442,13.03,92,100,8.38,ZA,1684975947
58,avarua,-21.2078,-159.775,28.03,69,22,6.17,CK,1684975948
59,isafjordur,66.0755,-23.124,3.61,72,78,13.65,IS,1684975948
60,labytnangi,66.6572,66.4183,12.3,63,6,3.12,RU,1684975949
61,zeya,53.75,127.2667,14.8,61,100,1.83,RU,1684975949
62,baranchinskiy,58.1617,59.6991,15.91,53,15,1.26,RU,1684975949
63,yellowknife,62.456,-114.3525,14.29,62,75,2.06,CA,1684975839
64,celano,42.0855,13.5398,11.43,85,100,1.34,IT,1684975950
65,madang,-5.2246,145.7966,24.2,96,100,1.18,PG,1684975951
66,mitu,1.1983,-70.1733,23.22,99,99,1.1,CO,1684975951
67,hermanus,-34.4187,19.2345,14.33,77,100,6.35,ZA,1684975951
68,grytviken,-54.2811,-36.5092,0.67,55,50,2.4,GS,1684975952
69,cadale,2.7603,46.3222,26.94,76,100,4.83,SO,1684975952
70,san luis de la loma,17.2706,-100.8939,28.53,71,100,3.13,MX,1684975953
71,wynyard,-41.0,145.7167,10.54,91,100,6.55,AU,1684975953
72,vilyuysk,63.7553,121.6247,8.46,33,100,3.97,RU,1684975958
73,thompson,55.7435,-97.8558,20.09,22,75,4.12,CA,1684975959
74,gaiman,-43.2897,-65.4929,10.96,35,86,5.6,AR,1684975959
75,whitehorse,60.7161,-135.0538,19.45,35,75,6.71,CA,1684975837
76,cockburn town,21.4612,-71.1419,27.48,77,11,3.29,TC,1684975909
77,jacupiranga,-24.6925,-48.0022,17.65,99,26,0.76,BR,1684975960
78,tanda,26.55,82.65,29.59,49,85,3.17,IN,1684975960
79,simanggang,1.2472,111.4528,24.99,94,20,1.03,MY,1684975961
80,port douglas,-16.4833,145.4667,24.99,68,87,8.08,AU,1684975961
81,severo-yeniseyskiy,60.3725,93.0408,2.11,66,25,3.05,RU,1684975961
82,touros,-5.1989,-35.4608,24.83,87,82,3.29,BR,1684975962
83,east end,34.5507,-92.341,26.94,71,82,2.0,US,1684975962
84,guiuan,11.0333,125.7247,28.99,71,100,1.69,PH,1684975963
85,lazaro cardenas,17.9583,-102.2,28.25,71,100,3.77,MX,1684975719
86,mthatha,-31.5889,28.7844,13.3,46,100,2.95,ZA,1684975963
87,usogorsk,63.4106,48.6872,15.87,69,100,2.63,RU,1684975964
88,mar del plata,-38.0023,-57.5575,16.72,98,100,0.0,AR,1684975747
89,luderitz,-26.6481,15.1594,12.42,84,50,2.53,NA,1684975964
90,punta arenas,-53.15,-70.9167,2.84,67,100,9.83,CL,1684975927
91,aykhal,66.0,111.5,0.02,88,100,6.32,RU,1684975965
92,novyy urgal,51.0736,132.5642,20.92,51,100,1.98,RU,1684975966
93,luena,-11.7833,19.9167,15.52,65,5,1.28,AO,1684975966
94,sakaiminato,35.55,133.2333,19.99,42,75,2.06,JP,1684975966
95,naze,28.3667,129.4833,23.51,68,39,4.56,JP,1684975967
96,along,28.1667,94.7667,22.15,92,79,0.22,IN,1684975967
97,champerico,14.3,-91.9167,28.3,71,99,2.9,GT,1684975967
98,sandnessjoen,66.0217,12.6316,5.36,89,100,4.02,NO,1684975968
99,choibalsan,48.0667,114.5,15.62,34,23,6.29,MN,1684975968
100,iskateley,67.6803,53.1512,13.78,87,100,3.42,RU,1684975969
101,mogocha,53.7333,119.7667,12.65,43,100,2.52,RU,1684975969
102,puerto natales,-51.7236,-72.4875,0.08,84,49,2.87,CL,1684975969
103,vorgashor,67.5833,63.95,10.29,75,100,5.03,RU,1684975970
104,slave lake,55.2834,-114.769,13.08,67,54,3.66,CA,1684975970
105,enewetak,11.3474,162.3373,27.85,77,100,6.93,MH,1684975970
106,whakatane,-37.9585,176.9854,17.16,70,81,1.34,NZ,1684975971
107,tsiombe,-25.3,45.4833,16.51,68,1,2.38,MG,1684975971
108,harstad,68.799,16.5293,5.64,88,40,14.75,NO,1684975971
109,puerto ayacucho,5.6639,-67.6236,24.65,90,100,1.02,VE,1684975972
110,jacmel,18.2342,-72.5347,27.91,82,1,0.93,HT,1684975972
111,pariaman,-0.619,100.12,26.03,81,29,0.97,ID,1684975972
112,ilulissat,69.2167,-51.1,1.01,47,100,3.6,GL,1684975973
113,biltine,14.5333,20.9167,32.77,28,14,2.44,TD,1684975973
114,port shepstone,-30.7414,30.455,17.74,55,10,3.74,ZA,1684975973
115,oranjemund,-28.55,16.4333,12.59,84,0,3.82,NA,1684975974
116,remire-montjoly,4.9167,-52.2667,26.02,94,75,1.54,GF,1684975974
117,bredasdorp,-34.5322,20.0403,12.86,56,100,2.8,ZA,1684975975
118,ancud,-41.8697,-73.8203,10.04,74,84,9.16,CL,1684975975
119,palmas de monte alto,-14.2672,-43.1619,23.97,52,67,4.19,BR,1684975975
120,tommot,58.9564,126.2925,12.8,47,29,1.17,RU,1684975976
121,glace bay,46.1969,-59.957,6.29,91,100,5.14,CA,1684975960
122,caransebes,45.4167,22.2167,13.11,93,4,1.53,RO,1684975977
123,midvagur,62.0511,-7.1939,7.46,81,75,11.32,FO,1684975977
124,verkhnevilyuysk,63.4453,120.3167,9.47,38,16,3.59,RU,1684975977
125,vilyuchinsk,52.9306,158.4028,16.15,78,32,2.51,RU,1684975978
126,karpinsk,59.7654,60.0085,15.36,60,75,1.19,RU,1684975978
127,broken hill,-31.95,141.4333,17.21,25,99,8.63,AU,1684975978
128,kharabali,47.4196,47.2568,21.35,61,98,4.37,RU,1684975979
129,happy valley-goose bay,53.3168,-60.3315,4.17,93,100,7.2,CA,1684975979
130,bogo,11.0517,124.0055,30.29,68,97,0.94,PH,1684975979
131,malmberget,67.1753,20.6549,3.24,65,7,6.16,SE,1684975980
132,goshen,41.5823,-85.8344,20.05,34,0,5.66,US,1684975980
133,nishinoomote,30.7333,131.0,23.31,64,20,5.14,JP,1684975981
134,avellaneda,-29.1176,-59.6583,20.98,76,0,3.61,AR,1684975981
135,hadibu,12.65,54.0333,29.0,71,54,3.39,YE,1684975981
136,gordon,34.5004,-84.8666,23.94,54,0,2.06,US,1684975982
137,rumphi,-11.0186,33.8575,15.25,90,4,1.65,MW,1684975982
138,hawaiian paradise park,19.5933,-154.9731,25.41,85,100,5.66,US,1684975983
139,papatowai,-46.5619,169.4708,15.11,65,91,3.31,NZ,1684975984
140,qarauyl,48.9451,79.255,14.0,46,60,5.27,KZ,1684975984
141,ati,13.2154,18.3353,33.78,30,12,3.83,TD,1684975985
142,klyuchi,52.2667,79.1667,13.65,41,29,3.35,RU,1684975985
143,hafar al-batin,28.4328,45.9708,30.32,39,40,3.6,SA,1684975986
144,barguzin,53.6167,109.6167,6.28,54,32,4.39,RU,1684975986
145,atafu village,-8.5421,-172.5159,27.85,71,85,0.89,TK,1684975986
146,magadan,59.5667,150.8,2.02,84,100,2.09,RU,1684975987
147,chinde,26.8418,88.0763,18.17,74,31,0.49,NP,1684975987
148,kapa'a,22.0752,-159.319,27.99,70,40,7.72,US,1684975775
149,terenozek,45.05,64.9833,18.38,40,4,3.72,KZ,1684975988
150,swakopmund,-22.6833,14.5333,13.32,87,6,1.34,NA,1684975988
151,owando,-0.4819,15.8999,23.07,90,77,1.09,CG,1684975989
152,west island,-12.1568,96.8225,26.99,83,75,8.23,CC,1684975989
153,luau,-10.7073,22.2247,18.46,59,2,1.92,AO,1684975990
154,lebu,-37.6167,-73.65,11.19,85,90,4.33,CL,1684975697
155,lihue,21.9789,-159.3672,27.58,70,40,7.72,US,1684975752
156,weno,7.4515,151.8468,28.11,67,100,1.4,FM,1684975991
157,road town,18.4167,-64.6167,27.02,78,20,2.57,VG,1684975991
158,fort mcmurray,56.7268,-111.381,14.77,62,100,5.66,CA,1684975676
159,saint-philippe,-21.3585,55.7679,22.77,86,100,4.04,RE,1684975992
160,uryupinsk,50.8047,42.0138,14.23,96,4,2.94,RU,1684975993
161,burutu,5.3509,5.5076,26.16,91,100,3.44,NG,1684975993
162,crane,31.3974,-102.3501,23.07,58,62,8.33,US,1684975994
163,mejit,10.2753,170.8646,27.83,78,100,6.8,MH,1684975994
164,katsuura,35.1333,140.3,19.58,61,100,2.45,JP,1684975995
165,el bolson,-41.9667,-71.5167,3.26,98,97,3.74,AR,1684975710
166,keflavik,64.0049,-22.5624,6.95,70,75,10.8,IS,1684975996
167,rawson,-43.3002,-65.1023,12.06,37,95,7.07,AR,1684975996
168,tavsanli,39.5424,29.4987,10.24,93,20,0.43,TR,1684975997
169,burang,30.25,81.1667,1.2,86,91,2.28,CN,1684975997
170,ta`u,-14.2336,-169.5144,27.01,78,86,1.48,AS,1684975998
171,mount isa,-20.7333,139.5,24.87,33,0,4.63,AU,1684975999
172,saipan,15.1355,145.701,28.56,75,100,17.04,MP,1684975999
173,xilin hot,43.9667,116.0333,10.8,77,100,10.21,CN,1684976000
174,shihezi,44.3,86.0333,20.22,31,78,2.42,CN,1684976000
175,aasiaat,68.7098,-52.8699,-3.12,83,100,2.91,GL,1684976000
176,boa vista,2.8197,-60.6733,25.99,89,75,2.57,BR,1684975899
177,hamilton,39.1834,-84.5333,26.47,46,75,4.12,US,1684975896
178,tazacorte,28.629,-17.9293,19.54,82,100,1.79,ES,1684976002
179,'ain boucif,35.8912,3.1585,10.36,86,98,2.79,DZ,1684976002
180,santa elena,-2.2333,-80.85,25.75,89,75,2.57,EC,1684976003
181,gadzhiyevo,69.2551,33.3362,11.16,66,100,7.91,RU,1684976003
182,goderich,43.7501,-81.7165,10.51,40,5,7.2,CA,1684976004
183,prince george,53.9166,-122.753,19.69,64,75,3.09,CA,1684976004
184,cruzeiro do sul,-29.5128,-51.9853,20.28,82,10,1.66,BR,1684976004
185,greenville,35.6127,-77.3663,19.09,62,75,1.54,US,1684975635
186,pitimbu,-7.4706,-34.8086,25.33,83,4,2.09,BR,1684975984
187,hammerfest,70.6634,23.6821,8.25,57,72,5.66,NO,1684976006
188,igarka,67.4667,86.5833,1.22,78,93,2.81,RU,1684976006
189,la passe,45.5549,-0.8967,15.13,76,30,6.12,FR,1684976007
190,al kharijah,25.4514,30.5464,27.27,17,100,4.7,EG,1684976007
191,kourou,5.1552,-52.6478,26.03,92,100,2.04,GF,1684976007
192,soto la marina,23.7667,-98.2167,27.22,73,96,6.04,MX,1684976008
193,kodiak,57.79,-152.4072,7.73,81,100,6.17,US,1684976008
194,namie,37.4833,141.0,20.86,56,100,2.94,JP,1684976009
195,balikpapan,-1.2675,116.8289,27.55,83,20,1.54,ID,1684976009
196,vila franca do campo,37.7167,-25.4333,16.23,87,50,2.57,PT,1684975802
197,pestravka,52.405,49.9583,17.43,48,73,4.49,RU,1684976010
198,coweta,33.3835,-84.7666,23.03,73,0,0.0,US,1684975765
199,nova kakhovka,46.7545,33.3486,17.56,82,100,1.5,UA,1684976011
200,pustoshka,56.3355,29.369,10.48,91,6,0.52,RU,1684976011
201,douz,33.4663,9.0203,20.28,71,0,3.45,TN,1684976011
202,jianshui,23.6363,102.8264,25.02,56,1,2.47,CN,1684976012
203,sardinata,8.0829,-72.8007,27.82,97,100,1.55,CO,1684976012
204,ajdabiya,30.7554,20.2263,23.6,46,0,11.01,LY,1684976013
205,olonkinbyen,70.9221,-8.7187,-1.99,89,100,18.02,SJ,1684976013
206,zaozersk,69.4005,32.4476,10.99,66,98,8.55,RU,1684976013
207,spring creek,40.7266,-115.5859,12.44,76,100,2.67,US,1684976014
208,sinan,34.8262,126.1086,22.06,74,6,2.47,KR,1684976014
209,tadine,-21.55,167.8833,22.57,57,100,6.45,NC,1684976015
210,guerrero negro,27.9769,-114.0611,17.86,68,6,7.76,MX,1684976015
211,hirado,33.3597,129.5531,21.33,72,100,2.9,JP,1684976015
212,barrouallie,13.2333,-61.2667,25.79,83,40,3.6,VC,1684976016
213,illizi,26.4833,8.4667,23.89,10,100,2.72,DZ,1684976016
214,kirensk,57.7853,108.1119,3.06,98,100,2.85,RU,1684976016
215,labrador city,52.9463,-66.9114,3.95,48,20,5.14,CA,1684975810
216,kununurra,-15.7667,128.7333,23.99,41,10,2.57,AU,1684976017
217,yermentau,51.6214,73.1069,15.71,46,13,1.36,KZ,1684976018
218,rudbar,30.15,62.6,26.67,23,0,5.03,AF,1684976018
219,antonio enes,-16.2325,39.9086,22.31,76,0,2.75,MZ,1684976018
220,kingston,17.997,-76.7936,28.53,80,20,1.54,JM,1684976019
221,kembe,4.6228,21.8865,20.76,88,74,0.8,CF,1684976019
222,uturoa,-16.7333,-151.4333,27.37,69,3,1.19,PF,1684976020
223,arteche,12.2645,125.4048,30.76,63,98,1.85,PH,1684976020
224,ranot,7.7777,100.3213,28.84,75,97,4.38,TH,1684976021
225,lively,46.4334,-81.1498,9.51,56,0,2.29,CA,1684976021
226,kapuskasing,49.4169,-82.4331,11.0,32,0,4.12,CA,1684976021
227,vernon,50.2581,-119.2691,20.2,52,100,4.02,CA,1684975989
228,college,64.8569,-147.8028,21.44,37,75,4.12,US,1684976022
229,kiunga,-6.1219,141.2906,23.57,97,100,0.34,PG,1684976023
230,kampung tanjung karang,3.4242,101.1849,30.33,75,15,1.22,MY,1684976023
231,sisimiut,66.9395,-53.6735,-0.8,77,89,2.19,GL,1684976023
232,st. john's,47.5649,-52.7093,7.66,85,20,3.09,CA,1684975995
233,belmonte,-15.8631,-38.8828,23.34,85,1,3.04,BR,1684976024
234,gisborne,-38.6533,178.0042,14.39,61,66,3.14,NZ,1684975562
235,namibe,-15.1961,12.1522,20.04,80,1,4.81,AO,1684976025
236,kashgar,39.4547,75.9797,16.56,55,40,1.0,CN,1684976025
237,hithadhoo,-0.6,73.0833,28.2,76,100,5.03,MV,1684976026
238,port lincoln,-34.7333,135.8667,15.12,69,43,9.54,AU,1684976026
239,hilo,19.7297,-155.09,28.49,91,100,5.66,US,1684975742
240,gozyeri,40.866,32.5417,8.15,89,58,1.25,TR,1684976027
241,port augusta,-32.5,137.7667,18.31,29,100,5.76,AU,1684976027
242,adigrat,14.277,39.462,15.74,63,13,0.84,ET,1684976027
243,alofi,-19.0595,-169.9187,24.94,22,75,2.57,NU,1684976028
244,kijang,35.2442,129.2139,19.85,52,31,1.8,KR,1684976028
245,viedma,-40.8135,-62.9967,13.76,30,99,4.39,AR,1684976029
246,vanimo,-2.6741,141.3028,29.44,68,99,0.88,PG,1684976029
247,faya-largeau,17.9257,19.1043,33.68,12,2,1.95,TD,1684976029
248,shingu,33.7333,135.9833,22.02,56,28,4.38,JP,1684976030
249,krutinka,56.0055,71.5113,13.88,71,98,3.27,RU,1684976030
250,mount pearl,47.5166,-52.7813,7.19,85,20,3.09,CA,1684976030
251,mahina,-17.5065,-149.489,28.87,65,20,4.12,PF,1684976031
252,fale old settlement,-9.3852,-171.2468,27.89,74,19,1.16,TK,1684976031
253,ad dawadimi,24.5077,44.3924,22.64,27,100,3.17,SA,1684976032
254,katsuren-haebaru,26.3369,127.8719,27.21,67,75,2.57,JP,1684976032
255,brookings,44.3114,-96.7984,27.19,29,0,5.14,US,1684975930
256,karabash,55.4808,60.2157,14.11,51,19,1.83,RU,1684976033
257,hasaki,35.7333,140.8333,20.16,56,100,2.27,JP,1684976033
258,nemuro,43.3236,145.575,11.01,72,0,5.64,JP,1684976034
259,sao vicente,-23.9631,-46.3919,23.88,26,24,1.04,BR,1684976034
260,fortuna,40.5982,-124.1573,15.52,73,20,7.2,US,1684975817
261,kalymnos,36.95,26.9833,18.74,82,20,1.54,GR,1684976035
262,ivdel',60.6911,60.4206,15.24,65,60,0.03,RU,1684976035
263,porbandar,21.6422,69.6093,27.87,85,62,6.53,IN,1684976035
264,dwarka,22.2394,68.9678,28.0,87,98,8.31,IN,1684976036
265,altamira,-3.2033,-52.2064,24.14,88,60,1.46,BR,1684976036
266,shimoda,34.6667,138.95,19.2,75,100,2.4,JP,1684976036
267,hatillo,18.4863,-66.8254,28.77,80,86,0.97,PR,1684976037
268,loreto,22.2667,-101.9667,27.59,11,12,4.79,MX,1684976037
269,fort st. john,56.2499,-120.8529,16.94,51,75,4.63,CA,1684975929
270,bembereke,10.2283,2.6634,22.79,86,100,1.64,BJ,1684976038
271,tura,25.5198,90.2201,24.47,71,0,1.91,IN,1684976038
272,tinajo,29.0788,-13.7081,18.49,72,20,2.57,ES,1684976039
273,vila velha,-20.3297,-40.2925,21.08,93,40,1.54,BR,1684976039
274,saint-jean-sur-richelieu,45.3168,-73.2659,13.16,83,91,1.54,CA,1684975845
275,sarikei,2.1167,111.5167,27.8,63,70,1.31,MY,1684976040
276,lompoc,34.6391,-120.4579,19.45,69,75,6.71,US,1684976040
277,vicente guerrero,19.1194,-98.1708,17.76,69,100,1.39,MX,1684976041
278,manado,1.487,124.8455,30.43,70,20,1.03,ID,1684976041
279,jining,35.405,116.5814,19.11,57,100,4.48,CN,1684976041
280,kuta,-8.7233,115.1723,27.97,78,20,4.63,ID,1684976042
281,sur,22.5667,59.5289,31.58,57,6,6.01,OM,1684976042
282,tucurui,-3.7661,-49.6725,24.6,87,69,1.44,BR,1684975925
283,howrah,22.5892,88.3103,27.0,89,40,1.54,IN,1684976043
284,udachny,66.4167,112.4,0.25,92,100,6.79,RU,1684975549
285,luchingu,-10.9,39.3333,16.78,97,6,0.96,TZ,1684976044
286,chibougamau,49.9168,-74.3659,5.79,52,0,5.66,CA,1684976044
287,byron bay,-28.65,153.6167,21.51,60,0,3.24,AU,1684976044
288,kutum,14.2,24.6667,26.77,19,2,3.36,SD,1684976045
289,muisne,0.6,-80.0333,26.01,84,100,3.99,EC,1684976045
290,inirida,3.8653,-67.9239,24.36,94,100,0.85,CO,1684976045
291,basoko,1.2391,23.616,22.21,85,9,1.36,CD,1684976046
292,margate,51.3813,1.3862,11.5,78,1,1.34,GB,1684976047
293,lagos,6.5833,3.75,25.55,94,99,1.05,NG,1684975804
294,itaituba,-4.2761,-55.9836,26.28,76,100,1.19,BR,1684976048
295,santander,43.4647,-3.8044,15.26,91,100,1.54,ES,1684976048
296,ust-nera,64.5667,143.2,3.06,89,99,2.24,RU,1684976049
297,new norfolk,-42.7826,147.0587,11.62,80,99,3.52,AU,1684976049
298,peace river,56.2501,-117.286,18.17,55,75,1.54,CA,1684976049
299,melfi,40.9965,15.6514,10.83,81,32,1.59,IT,1684976050
300,fernie,49.5,-115.0687,22.38,34,6,1.78,CA,1684976007
301,xai-xai,-25.0519,33.6442,18.4,92,0,3.87,MZ,1684976051
302,ouadda,8.0777,22.4007,22.94,62,100,0.99,CF,1684976051
303,pisco,-13.7,-76.2167,21.03,83,0,5.14,PE,1684976004
304,nar'yan-mar,67.6713,53.087,13.81,87,100,3.39,RU,1684976052
305,jutai,-5.1833,-68.9,22.26,99,100,0.4,BR,1684976052
306,alaghsas,17.0187,8.0168,33.71,18,97,2.07,NE,1684976053
307,sosnogorsk,63.6023,53.8817,16.09,62,95,1.08,RU,1684976053
308,yokadouma,3.5167,15.05,22.27,79,100,0.76,CM,1684976054
309,zabol,32.25,67.25,17.76,28,0,2.38,AF,1684976054
310,novodvinsk,64.4165,40.8122,13.29,90,27,1.96,RU,1684976054
311,rehoboth,-23.3167,17.0833,15.99,38,98,4.3,NA,1684976055
312,kupang,-10.1667,123.5833,29.32,74,20,6.17,ID,1684976055
313,baruun-urt,46.6806,113.2792,13.8,43,27,1.83,MN,1684976055
314,alice springs,-23.7,133.8833,18.75,27,0,0.0,AU,1684976056
315,peniche,39.3558,-9.3811,17.47,81,30,3.25,PT,1684976056
316,okhotsk,59.3833,143.3,4.2,77,99,1.83,RU,1684976057
317,nova sintra,14.8667,-24.7167,20.44,80,100,7.18,CV,1684976057
318,smithers,54.7804,-127.1743,23.18,28,20,5.14,CA,1684976057
319,zouerate,22.7187,-12.4521,24.01,36,100,2.18,MR,1684976058
320,bandarbeyla,9.4942,50.8122,27.25,79,100,8.59,SO,1684976058
321,male,4.1748,73.5089,28.97,84,20,3.6,MV,1684976058
322,dharampur,20.5333,73.1833,27.72,71,2,2.16,IN,1684976059
323,akjoujt,19.6969,-14.4164,26.28,47,100,1.78,MR,1684976059
324,ciudad insurgentes,25.2625,-111.7753,20.6,56,100,6.87,MX,1684976059
325,gazli,40.1333,63.45,21.57,18,0,4.3,UZ,1684976060
326,ust'-ilimsk,58.0006,102.6619,3.77,97,100,5.76,RU,1684975786
327,ribeira grande,38.5167,-28.7,17.1,78,31,2.24,PT,1684976061
328,egilsstadir,65.2653,-14.3948,5.95,56,75,6.17,IS,1684976061
329,dunedin,-45.8742,170.5036,16.56,58,14,1.79,NZ,1684975373
330,bubaque,11.2833,-15.8333,27.62,72,84,6.78,GW,1684976062
331,g'uzor,38.6214,66.2522,17.02,32,0,0.46,UZ,1684976062
332,puerto baquerizo moreno,-0.9,-89.6,25.1,77,1,3.47,EC,1684976063
333,asosa,10.0667,34.5333,19.6,62,13,1.83,ET,1684976063
334,zhezqazghan,47.7833,67.7667,15.23,42,6,4.22,KZ,1684976063
335,bayramaly,37.6185,62.1671,20.86,19,0,3.75,TM,1684976064
336,isangel,-19.55,169.2667,26.06,65,75,3.09,VU,1684976064
337,ulladulla,-35.35,150.4667,18.76,36,100,4.73,AU,1684976064
338,jayapura,-2.5333,140.7,28.66,68,96,1.31,ID,1684975768
339,mengcheng chengguanzhen,33.2661,116.566,22.17,60,4,3.28,CN,1684976065
340,port alfred,-33.5906,26.891,19.86,38,100,4.06,ZA,1684976065
341,flying fish cove,-10.4217,105.6791,25.82,88,100,5.66,CX,1684976066
342,paragominas,-2.9667,-47.4833,22.43,99,40,1.5,BR,1684976066
343,morales,2.757,-76.6172,17.08,98,100,0.3,CO,1684976067
344,espanola,35.9911,-106.0806,28.19,18,0,0.89,US,1684976067
345,karratha,-20.7377,116.8463,23.38,21,2,7.11,AU,1684976067
346,kikwit,-5.041,18.8162,22.36,91,24,0.88,CD,1684976068
347,san patricio,28.017,-97.5169,28.92,74,54,4.03,US,1684976068
348,sulphur,30.2366,-93.3774,24.99,88,75,4.12,US,1684976068
349,ordu,40.9086,37.6845,9.28,92,34,1.4,TR,1684976069
350,vadso,70.0744,29.7487,9.49,71,75,5.14,NO,1684975838
351,searcy,35.2506,-91.7363,27.0,56,0,3.09,US,1684976069
352,corte,42.25,9.25,13.98,85,41,1.94,FR,1684976070
353,uyuni,-20.4597,-66.825,3.57,24,0,4.32,BO,1684976070
354,shakawe,-18.3667,21.85,16.01,33,3,1.95,BW,1684976071
355,yangambi,0.8102,24.4336,21.18,93,66,0.38,CD,1684976071
356,minas de marcona,-15.2119,-75.1103,15.05,86,76,4.78,PE,1684976071
357,morant bay,17.8815,-76.4093,28.79,82,4,1.67,JM,1684976072
358,ulaangom,49.9811,92.0667,8.63,64,99,2.32,MN,1684976072
359,bambous,-20.2567,57.4061,22.85,82,6,1.77,MU,1684975931
360,mount gambier,-37.8333,140.7667,12.64,69,100,5.62,AU,1684976073
361,viqueque,-8.8673,126.3658,27.35,70,37,2.98,TL,1684976073
362,islamkot,24.6997,70.177,27.78,78,0,9.51,PK,1684976073
363,yamethin,20.4333,96.15,28.29,65,11,4.23,MM,1684976074
364,kodinsk,58.6881,99.1844,4.91,72,96,4.67,RU,1684976074
365,kyabe,9.4515,18.9449,30.0,32,54,2.5,TD,1684976075
366,deschutes river woods,43.9915,-121.3584,20.33,31,0,4.12,US,1684976075
367,shahr-e babak,30.1165,55.1186,21.54,25,100,0.64,IR,1684976075
368,palmas,-10.2128,-48.3603,25.93,73,0,3.09,BR,1684975948
369,zhangatas,43.5667,69.75,15.87,45,0,2.01,KZ,1684976076
370,sumbawa besar,-8.5,117.4333,28.58,60,28,2.93,ID,1684976076
371,seme,15.1942,-12.9448,34.37,18,99,8.91,SN,1684976077
372,rongelap,11.1635,166.8941,27.77,79,80,6.83,MH,1684976077
373,tralee,52.2704,-9.7026,9.7,97,20,1.24,IE,1684976077
374,antsiranana,-12.2787,49.2917,22.25,90,3,1.64,MG,1684976078
375,port blair,11.6667,92.75,28.02,83,40,1.03,IN,1684976078
376,seydi,39.4816,62.9137,22.04,17,0,4.43,TM,1684976079
377,yarmouth,41.7057,-70.2286,15.64,95,100,2.24,US,1684975936
378,vanino,49.0869,140.2543,23.68,38,100,1.73,RU,1684976079
379,dhidhdhoo,6.8833,73.1,28.9,74,6,3.88,MV,1684976080
380,coyhaique,-45.5752,-72.0662,1.38,98,81,1.77,CL,1684976050
381,stettler,52.3168,-112.7186,18.86,34,100,3.09,CA,1684976080
382,an nuhud,12.7,28.4333,29.73,24,31,2.1,SD,1684976081
383,palikir - national government center,6.9248,158.1611,30.47,79,75,3.6,FM,1684976081
384,ulsteinvik,62.3432,5.8487,9.31,79,85,7.15,NO,1684976081
385,san antonio de pale,-1.4014,5.6325,26.42,89,94,5.69,GQ,1684976082
386,mata-utu,-13.2816,-176.1745,27.44,78,20,3.0,WF,1684976082
387,heide,54.2,9.1,8.81,95,65,3.01,DE,1684976082
388,jalai nur,49.45,117.7,15.45,40,100,1.42,CN,1684976083
389,yinchuan,38.4681,106.2731,18.41,25,100,3.59,CN,1684976083
390,waingapu,-9.6567,120.2641,27.45,72,3,5.49,ID,1684976083
391,tshabong,-26.05,22.45,18.21,27,7,5.81,BW,1684976084
392,noumea,-22.2763,166.4572,25.56,99,88,5.66,NC,1684975997
393,dengi,9.3667,9.95,27.59,65,76,1.36,NG,1684976084
394,khandyga,62.6667,135.6,12.16,38,42,0.82,RU,1684976085
395,swan hill,-35.3378,143.5544,17.15,29,100,7.51,AU,1684976085
396,kishtwar,33.3167,75.7667,13.67,77,100,1.06,IN,1684976086
397,balkashino,52.5167,68.7667,15.4,47,14,2.27,KZ,1684976086
398,portland,45.5234,-122.6762,24.75,43,20,7.2,US,1684975262
399,osakarovka,50.565,72.5692,15.08,46,6,1.56,KZ,1684976087
400,el calafate,-50.3408,-72.2768,-1.12,77,15,0.29,AR,1684976087
401,lerwick,60.1545,-1.1494,9.0,80,6,8.54,GB,1684976087
402,mili,6.0815,171.735,27.93,76,29,4.66,MH,1684976088
403,galappo,-4.2667,35.85,15.93,88,100,1.57,TZ,1684976088
404,bandar-e genaveh,29.5791,50.517,29.13,53,99,3.59,IR,1684976089
405,lorengau,-2.0226,147.2712,26.25,88,100,4.63,PG,1684976089
406,trinidad,-14.8333,-64.9,23.32,94,83,1.46,BO,1684976064
407,gaigeturi,33.4644,126.3183,22.03,53,0,3.6,KR,1684976090
408,luanco,43.6152,-5.7934,15.01,88,100,2.42,ES,1684975884
409,mankono,8.0586,-6.1897,24.47,86,100,1.75,CI,1684976090
410,tamanrasset,22.785,5.5228,24.95,9,0,5.14,DZ,1684976091
411,muravlenko,63.7898,74.523,6.69,61,0,3.95,RU,1684976091
412,black forest,39.0131,-104.7008,14.4,74,75,3.6,US,1684976092
413,east london,-33.0153,27.9116,20.24,33,98,3.82,ZA,1684976092
414,cuito,-12.3833,16.9333,12.78,44,9,0.92,AO,1684976092
415,sooke,48.3746,-123.7276,20.88,70,62,7.2,CA,1684975801
416,bhinmal,25.0,72.25,27.81,70,0,8.47,IN,1684976093
417,geraldton,-28.7667,114.6,12.23,71,0,5.14,AU,1684976093
418,richards bay,-28.783,32.0377,18.35,85,0,5.71,ZA,1684976094
419,severobaykal'sk,55.65,109.3167,1.55,82,34,1.47,RU,1684976094
420,twentynine palms,34.1356,-116.0542,31.19,12,0,5.81,US,1684976069
421,urzhar,47.093,81.6294,15.63,54,6,1.83,KZ,1684976095
422,lukolela,-1.0605,17.1821,22.13,92,65,1.63,CD,1684976095
423,caxito,-8.5785,13.6643,23.08,93,100,1.34,AO,1684976095
424,hotan,37.0997,79.9269,17.93,41,100,9.72,CN,1684976096
425,siocon,7.7061,122.1353,29.28,73,97,2.9,PH,1684976096
426,shenjiamen,29.9576,122.298,19.59,82,6,3.62,CN,1684976097
427,assab,13.0092,42.7394,30.71,65,44,6.85,ER,1684976097
428,usinsk,65.9939,57.5281,14.83,68,100,4.93,RU,1684976097
429,port saint john's,-31.6229,29.5448,18.55,55,99,3.7,ZA,1684976098
430,jinchang,38.4953,102.1739,15.71,23,100,0.95,CN,1684976098
431,krasnyy chikoy,50.3643,108.7512,5.56,67,100,3.29,RU,1684976099
432,mikulov,48.8056,16.6378,12.01,92,9,3.14,CZ,1684976099
433,ilhabela,-23.7781,-45.3581,21.43,89,16,3.05,BR,1684976100
434,brisas de zicatela,15.8369,-97.0419,28.96,75,100,3.5,MX,1684976100
435,riyadh,24.6877,46.7219,28.08,33,57,6.95,SA,1684975936
436,quellon,-43.1167,-73.6167,8.63,76,98,7.49,CL,1684976101
437,sola,-13.8833,167.55,28.37,74,75,1.54,VU,1684976101
438,waddan,29.1614,16.139,26.9,13,100,2.19,LY,1684976102
439,collierville,35.042,-89.6645,26.88,47,0,3.6,US,1684975945
440,la'ie,21.6477,-157.9253,29.98,64,5,3.58,US,1684976102
441,yuzhno-kurilsk,44.0306,145.8556,12.4,59,0,4.62,RU,1684976103
442,moose jaw,50.4001,-105.5344,26.14,47,61,5.66,CA,1684976103
443,myeik,12.4333,98.6,28.55,76,100,3.35,MM,1684976104
444,makungu,-8.7333,35.2833,16.48,98,89,1.25,TZ,1684976104
445,vrede,-27.4257,29.1659,8.1,48,38,0.59,ZA,1684976104
446,ubari,26.5921,12.7805,26.71,10,100,3.86,LY,1684976105
447,nacozari de garcia,30.3742,-109.6908,28.53,12,4,7.25,MX,1684976105
448,carauari,-4.8828,-66.8958,23.26,99,100,1.07,BR,1684976105
449,le morne-rouge,14.7667,-61.1333,23.76,79,10,3.51,MQ,1684976106
450,vallenar,-28.5708,-70.7581,16.38,48,1,0.78,CL,1684976106
451,kone,-21.0595,164.8658,25.5,43,19,3.94,NC,1684976107
452,san juan de miraflores,-12.1629,-76.9635,21.76,81,35,3.51,PE,1684976107
453,kedrovyy,56.1667,91.8167,4.37,53,27,1.89,RU,1684976107
454,amos,48.5669,-78.1162,3.79,53,3,2.72,CA,1684976108
455,siwa oasis,29.2041,25.5195,23.0,53,8,6.83,EG,1684976108
456,laojunmiao,39.8333,97.7333,11.96,22,100,1.98,CN,1684976108
457,papao,-17.75,-149.55,28.82,77,59,2.68,PF,1684976109
458,chilca,-12.5211,-76.7372,20.55,85,35,3.31,PE,1684976109
459,aripuana,-9.1667,-60.6333,25.36,73,100,1.01,BR,1684976110
460,malanje,-9.5402,16.341,16.17,56,39,1.06,AO,1684976110
461,kirakira,-10.4544,161.9205,27.88,84,100,2.35,SB,1684976110
462,olinda,-8.0089,-34.8553,24.85,88,40,1.54,BR,1684976111
463,xapuri,-10.6517,-68.5044,21.71,99,100,0.51,BR,1684976111
464,ola,59.5833,151.2833,3.24,76,100,2.2,RU,1684976111
465,necochea,-38.5473,-58.7368,15.67,91,100,2.09,AR,1684976112
466,ust'-kulom,61.6864,53.6902,15.94,61,96,1.9,RU,1684976112
467,mariental,-24.6333,17.9667,17.35,36,12,4.46,NA,1684976113
468,raymondville,26.4815,-97.7831,31.0,74,38,5.01,US,1684976113
469,tofol,5.3248,163.0078,30.88,70,75,5.66,FM,1684976113
470,coahuayana de hidalgo,18.7,-103.6583,27.83,71,88,1.98,MX,1684976114
471,utrik,11.2278,169.8474,27.56,78,100,7.07,MH,1684976114
472,sterling,39.0062,-77.4286,22.55,57,20,2.57,US,1684976114
473,kataba,13.9833,44.3833,17.04,61,82,1.8,YE,1684976115
474,muscat,23.6139,58.5922,36.01,52,45,4.33,OM,1684976115
475,carnarvon,-24.8667,113.6333,19.6,68,100,9.41,AU,1684976115
476,morrope,-6.5417,-80.0111,25.06,71,14,5.9,PE,1684976116
477,fort bragg,35.139,-79.006,22.91,38,0,3.6,US,1684976116
478,namtsy,62.7161,129.6658,11.09,43,31,1.9,RU,1684976117
479,chimoio,-19.1164,33.4833,15.71,99,24,0.21,MZ,1684976117
480,nabire,-3.3667,135.4833,29.66,71,39,0.84,ID,1684976117
481,kurchatov,51.6601,35.6521,16.23,93,100,0.99,RU,1684976118
482,koh kong,11.6175,102.9806,28.98,73,99,2.63,KH,1684976118
483,dauphin,51.1494,-100.0502,19.08,55,20,7.72,CA,1684976118
484,polyarnyy,69.1989,33.4478,11.27,67,100,7.5,RU,1684976119
485,yur'yevets,57.3201,43.1041,12.92,97,37,2.93,RU,1684976119
486,mzimba,-11.9,33.6,15.33,79,0,3.67,MW,1684976120
487,arraias,-12.9288,-46.9437,21.41,59,48,2.44,BR,1684976120
488,gorokhovets,56.1947,42.7003,14.74,96,99,2.12,RU,1684976121
489,alghero,40.5589,8.3181,16.05,100,0,1.03,IT,1684976121
490,el granada,37.5027,-122.4694,21.64,75,100,7.2,US,1684976121
491,dubno,50.4169,25.7343,15.63,69,97,1.29,UA,1684976122
492,havre,49.5833,0.3333,11.78,93,20,3.6,FR,1684976122
493,undurkhaan,47.3194,110.6556,12.49,44,48,5.17,MN,1684976122
494,konarka,19.9,86.1167,29.22,79,77,7.06,IN,1684976123
495,lucapa,-8.4192,20.7447,20.88,67,19,0.74,AO,1684976123
496,whistler,50.1164,-122.9695,16.66,65,67,1.09,CA,1684976123
497,acarau,-2.8856,-40.12,25.74,83,100,4.66,BR,1684976124
498,miyako,39.6367,141.9525,18.17,46,100,2.89,JP,1684976124
499,okha,53.5739,142.9478,3.48,86,97,7.85,RU,1684976124
500,maddur,12.6,77.0667,23.56,84,82,2.85,IN,1684976125
501,caburan,5.9181,125.6411,29.09,71,93,0.28,PH,1684976125
502,port macquarie,-31.4333,152.9167,21.05,36,8,3.12,AU,1684976051
503,kristiansund,63.1115,7.732,7.36,76,75,10.8,NO,1684976126
504,nguigmi,14.2495,13.1092,31.12,36,7,4.02,NE,1684976126
505,zheleznogorsk-ilimskiy,56.5768,104.1217,1.43,99,100,3.18,RU,1684976126
506,bikenibeu village,1.3673,173.1241,30.98,74,40,1.03,KI,1684976127
507,dindima,10.2263,10.1513,28.37,61,13,2.72,NG,1684976128
508,verkhniye kigi,55.4083,58.6044,14.61,60,30,1.32,RU,1684976133
509,sovet,38.0467,69.5882,20.01,54,98,2.94,TJ,1684976133
510,atlantic,39.4668,-74.6663,20.76,48,0,2.06,US,1684976134
511,balaklava,44.5,33.6,15.77,66,46,1.08,UA,1684976134
512,puerto deseado,-47.7503,-65.8938,8.17,47,100,10.87,AR,1684976134
513,kete krachi,7.7939,-0.0498,27.06,81,100,1.94,GH,1684976135
514,goure,13.9835,10.2704,30.67,37,30,3.4,NE,1684976135
515,cazin,44.9669,15.9431,13.54,98,100,1.58,BA,1684976136
516,hjorring,57.4642,9.9823,9.73,72,1,8.07,DK,1684976136
517,shahin dezh,36.6793,46.5669,17.29,53,92,0.74,IR,1684976136
518,sayansk,54.1088,102.1648,3.78,66,100,6.35,RU,1684976137
519,axim,4.8699,-2.2405,26.5,85,100,3.22,GH,1684976137
520,lisala,2.15,21.5167,23.13,77,84,0.86,CD,1684976137
521,dongola,19.1667,30.4833,32.02,14,0,4.84,SD,1684976138
522,ouro sogui,15.6,-13.3167,36.01,24,84,7.2,SN,1684976138
523,lamu,-2.2717,40.902,25.12,80,8,4.92,KE,1684976059
524,san jeronimo de juarez,17.1333,-100.4667,28.55,72,100,2.8,MX,1684976139
525,howard springs,-12.497,131.047,26.01,41,8,2.97,AU,1684976139
526,arti,56.4234,58.5328,15.35,57,68,0.49,RU,1684976139
527,nouadhibou,20.931,-17.0347,19.99,73,100,7.72,MR,1684976140
528,kampong chhnang,12.1667,104.55,29.74,64,29,1.62,KH,1684976140
529,morehead city,34.7229,-76.726,20.02,69,0,4.12,US,1684976140
530,argo,37.6333,22.7333,16.55,71,0,1.31,GR,1684976141
531,shalya,57.2471,58.7298,14.25,57,77,1.11,RU,1684976141
532,weinan,34.5036,109.5089,20.64,61,100,1.34,CN,1684976142
533,tsetserleg,47.475,101.4542,5.89,57,99,4.72,MN,1684976142
534,bulungu,-4.55,18.6,22.12,92,24,0.59,CD,1684976142
535,fisterra,42.9049,-9.2629,14.3,81,14,6.16,ES,1684975552
536,iwanuma,38.1047,140.8594,19.4,52,0,1.54,JP,1684976143
537,majano,46.1875,13.0616,17.89,90,21,3.56,IT,1684976143
538,alta,69.9689,23.2717,7.59,64,99,2.06,NO,1684976144
539,saguenay,48.4168,-71.0657,11.45,65,75,16.98,CA,1684975855
540,ankazobe,-18.3167,47.1167,11.61,83,0,1.47,MG,1684976145
541,sitka,57.0531,-135.33,11.94,87,100,3.09,US,1684976145
542,tolanaro,-25.0319,46.9987,17.04,100,40,0.0,MG,1684976145
543,neryungri,56.6709,124.6491,9.03,55,23,2.36,RU,1684976146
544,cabagan,17.4333,121.75,29.09,72,72,1.41,PH,1684976146
545,amble,55.3333,-1.5833,12.39,90,20,2.06,GB,1684976146
546,la huerta,19.4667,-104.65,27.95,49,99,2.61,MX,1684976147
547,bardai,11.65,7.2333,26.89,62,87,3.5,NG,1684976147
548,liwale,-9.7667,37.9333,16.99,93,0,0.2,TZ,1684976148
549,nadym,65.5333,72.5167,7.19,65,0,4.88,RU,1684976148
550,forster,-32.1667,152.5167,19.1,41,16,1.81,AU,1684976148
551,misratah,32.3754,15.0925,19.11,85,4,1.21,LY,1684976149
552,northam,51.0333,-4.2167,10.77,93,0,1.45,GB,1684976149
553,jonuta,18.0833,-92.1333,28.11,66,8,4.47,MX,1684976149
554,amuntai,-2.4177,115.2494,27.02,79,100,0.67,ID,1684976150
555,machico,32.7,-16.7667,17.62,82,20,1.54,PT,1684976150
556,lautoka,-17.6167,177.4667,26.92,65,75,3.6,FJ,1684976151
557,jiuquan,39.7432,98.5174,16.81,21,66,2.73,CN,1684976151
558,preobrazheniye,42.9019,133.9064,15.77,67,78,4.86,RU,1684976151
559,kavaratti,10.5669,72.642,29.47,68,4,2.34,IN,1684976152
560,charlton,42.1357,-71.9701,12.01,95,100,0.89,US,1684976152
561,merizo village,13.2658,144.6691,25.88,86,100,17.32,GU,1684976152
562,nikolayevsk-on-amure,53.1406,140.73,11.51,62,11,4.08,RU,1684976153
563,akureyri,65.6835,-18.0878,5.96,56,75,4.63,IS,1684976153
564,shankill,53.2261,-6.1244,14.4,93,20,3.9,IE,1684976153
565,coronel suarez,-37.4547,-61.9334,14.92,79,100,0.85,AR,1684976154
566,lubang,13.8584,120.124,28.96,72,43,1.36,PH,1684976154
567,rothenburg ob der tauber,49.3833,10.1833,8.18,81,75,2.57,DE,1684976154
568,sabang,5.8933,95.3214,28.95,75,100,7.37,ID,1684976155
569,saurimo,-9.6608,20.3916,19.09,66,0,1.82,AO,1684976155
570,vavuniya,8.7514,80.4971,25.34,84,73,2.37,LK,1684976156
571,manokwari,-0.8667,134.0833,28.82,69,98,1.71,ID,1684976156
572,quelimane,-17.8786,36.8883,19.78,91,5,1.44,MZ,1684976156
573,inari,68.906,27.0288,10.11,60,98,6.34,FI,1684976157
574,tamandare,-8.7597,-35.1047,24.63,87,3,0.91,BR,1684976157
